[
  {
    "id": 1,
    "name": "University of Kashmir",
    "address": "Hazratbal, Srinagar, Jammu and Kashmir, India",
    "city": "Srinagar",
    "state": "Jammu and Kashmir",
    "pincode": "190006",
    "website": "https://www.kashmiruniversity.net",
    "latitude": 34.1269,
    "longitude": 74.837,
    "scholarship_details": "UGC scholarships, Merit scholarships, SC/ST/OBC scholarships, State government scholarships available.",
    "type": "University",
    "established": "1948",
    "courses_offered": "Arts, Science, Commerce, Engineering, Medical, Law, Management"
  },
  {
    "id": 2,
    "name": "University of Jammu",
    "address": "Baba Saheb Ambedkar Road, Jammu, Jammu and Kashmir, India",
    "city": "Jammu",
    "state": "Jammu and Kashmir",
    "pincode": "180006",
    "website": "https://www.jammuuniversity.ac.in",
    "latitude": 32.7266,
    "longitude": 74.857,
    "scholarship_details": "UGC scholarships, Merit scholarships, SC/ST/OBC scholarships, State government scholarships available.",
    "type": "University",
    "established": "1969",
    "courses_offered": "Arts, Science, Commerce, Engineering, Medical, Law, Management"
  },
  {
    "id": 3,
    "name": "Central University of Kashmir",
    "address": "Nunar, Ganderbal, Jammu and Kashmir, India",
    "city": "Ganderbal",
    "state": "Jammu and Kashmir",
    "pincode": "191201",
    "website": "https://www.cukashmir.ac.in",
    "latitude": 34.2307,
    "longitude": 74.7847,
    "scholarship_details": "Central government scholarships, UGC scholarships, Merit scholarships, Research fellowships available.",
    "type": "Central University",
    "established": "2009",
    "courses_offered": "Arts, Science, Commerce, Engineering, Management, Research"
  },
  {
    "id": 4,
    "name": "Central University of Jammu",
    "address": "Bagla, Rahya-Suchani, Samba, Jammu and Kashmir, India",
    "city": "Samba",
    "state": "Jammu and Kashmir",
    "pincode": "181143",
    "website": "https://www.cujammu.ac.in",
    "latitude": 32.5625,
    "longitude": 75.1194,
    "scholarship_details": "Central government scholarships, UGC scholarships, Merit scholarships, Research fellowships available.",
    "type": "Central University",
    "established": "2011",
    "courses_offered": "Arts, Science, Commerce, Engineering, Management, Research"
  },
  {
    "id": 5,
    "name": "National Institute of Technology Srinagar",
    "address": "Hazratbal, Srinagar, Jammu and Kashmir, India",
    "city": "Srinagar",
    "state": "Jammu and Kashmir",
    "pincode": "190006",
    "website": "https://www.nitsri.ac.in",
    "latitude": 34.1269,
    "longitude": 74.837,
    "scholarship_details": "Technical education scholarships, Merit scholarships, Industry scholarships, JEE-based scholarships available.",
    "type": "Engineering Institute",
    "established": "1960",
    "courses_offered": "Engineering, Technology, Computer Science, Electronics"
  },
  {
    "id": 6,
    "name": "Government Medical College Srinagar",
    "address": "Karan Nagar, Srinagar, Jammu and Kashmir, India",
    "city": "Srinagar",
    "state": "Jammu and Kashmir",
    "pincode": "190010",
    "website": "https://www.gmcsrinagar.edu.in",
    "latitude": 34.0837,
    "longitude": 74.7973,
    "scholarship_details": "Medical education scholarships, NEET-based scholarships, Government medical scholarships available.",
    "type": "Medical College",
    "established": "1959",
    "courses_offered": "MBBS, MD, MS, Nursing, Paramedical"
  },
  {
    "id": 7,
    "name": "Government Medical College Jammu",
    "address": "Sector 5, Bhagwati Nagar, Jammu, Jammu and Kashmir, India",
    "city": "Jammu",
    "state": "Jammu and Kashmir",
    "pincode": "180016",
    "website": "https://www.gmcjammu.nic.in",
    "latitude": 32.7266,
    "longitude": 74.857,
    "scholarship_details": "Medical education scholarships, NEET-based scholarships, Government medical scholarships available.",
    "type": "Medical College",
    "established": "1973",
    "courses_offered": "MBBS, MD, MS, Nursing, Paramedical"
  },
  {
    "id": 8,
    "name": "Government Degree College Srinagar",
    "address": "M.A. Road, Srinagar, Jammu and Kashmir, India",
    "city": "Srinagar",
    "state": "Jammu and Kashmir",
    "pincode": "190001",
    "website": "https://www.gdcsrinagar.edu.in",
    "latitude": 34.0837,
    "longitude": 74.7973,
    "scholarship_details": "State government scholarships, Merit scholarships, Need-based financial assistance available.",
    "type": "Degree College",
    "established": "1950",
    "courses_offered": "BA, BSc, BCom, MA, MSc, MCom"
  },
  {
    "id": 9,
    "name": "Government Degree College Jammu",
    "address": "Canal Road, Jammu, Jammu and Kashmir, India",
    "city": "Jammu",
    "state": "Jammu and Kashmir",
    "pincode": "180001",
    "website": "https://www.gdcjammu.edu.in",
    "latitude": 32.7266,
    "longitude": 74.857,
    "scholarship_details": "State government scholarships, Merit scholarships, Need-based financial assistance available.",
    "type": "Degree College",
    "established": "1948",
    "courses_offered": "BA, BSc, BCom, MA, MSc, MCom"
  },
  {
    "id": 10,
    "name": "Government College for Women Srinagar",
    "address": "M.A. Road, Srinagar, Jammu and Kashmir, India",
    "city": "Srinagar",
    "state": "Jammu and Kashmir",
    "pincode": "190001",
    "website": "https://www.gcwsrinagar.edu.in",
    "latitude": 34.0837,
    "longitude": 74.7973,
    "scholarship_details": "Women empowerment scholarships, Merit scholarships, State government scholarships available.",
    "type": "Women College",
    "established": "1950",
    "courses_offered": "BA, BSc, BCom, MA, MSc, MCom, BEd"
  },
  {
    "id": 11,
    "name": "Government Degree College Anantnag",
    "address": "Anantnag, Jammu and Kashmir, India",
    "city": "Anantnag",
    "state": "Jammu and Kashmir",
    "pincode": "192101",
    "website": "https://www.gdcanantnag.edu.in",
    "latitude": 33.7311,
    "longitude": 75.148,
    "scholarship_details": "State government scholarships, Merit scholarships, Need-based financial assistance available.",
    "type": "Degree College",
    "established": "1955",
    "courses_offered": "BA, BSc, BCom, MA, MSc"
  },
  {
    "id": 12,
    "name": "Government Degree College Baramulla",
    "address": "Baramulla, Jammu and Kashmir, India",
    "city": "Baramulla",
    "state": "Jammu and Kashmir",
    "pincode": "193101",
    "website": "https://www.gdcbaramulla.edu.in",
    "latitude": 34.2094,
    "longitude": 74.3428,
    "scholarship_details": "State government scholarships, Merit scholarships, Need-based financial assistance available.",
    "type": "Degree College",
    "established": "1958",
    "courses_offered": "BA, BSc, BCom, MA, MSc"
  },
  {
    "id": 13,
    "name": "Government Degree College Kupwara",
    "address": "Kupwara, Jammu and Kashmir, India",
    "city": "Kupwara",
    "state": "Jammu and Kashmir",
    "pincode": "193222",
    "website": "https://www.gdckupwara.edu.in",
    "latitude": 34.5267,
    "longitude": 74.2467,
    "scholarship_details": "State government scholarships, Merit scholarships, Need-based financial assistance available.",
    "type": "Degree College",
    "established": "1965",
    "courses_offered": "BA, BSc, BCom"
  },
  {
    "id": 14,
    "name": "Government Degree College Pulwama",
    "address": "Pulwama, Jammu and Kashmir, India",
    "city": "Pulwama",
    "state": "Jammu and Kashmir",
    "pincode": "192301",
    "website": "https://www.gdcpulwama.edu.in",
    "latitude": 33.8712,
    "longitude": 74.8947,
    "scholarship_details": "State government scholarships, Merit scholarships, Need-based financial assistance available.",
    "type": "Degree College",
    "established": "1962",
    "courses_offered": "BA, BSc, BCom"
  },
  {
    "id": 15,
    "name": "Government Degree College Kathua",
    "address": "Kathua, Jammu and Kashmir, India",
    "city": "Kathua",
    "state": "Jammu and Kashmir",
    "pincode": "184101",
    "website": "https://www.gdckathua.edu.in",
    "latitude": 32.3705,
    "longitude": 75.5224,
    "scholarship_details": "State government scholarships, Merit scholarships, Need-based financial assistance available.",
    "type": "Degree College",
    "established": "1960",
    "courses_offered": "BA, BSc, BCom, MA, MSc"
  }
]