[
  {
    "name": "Indian Institute of Technology Bombay",
    "address": "Mumbai, Maharashtra, India",
    "city": "Mumbai",
    "state": "Maharashtra",
    "pincode": "400001",
    "website": "https://www.indian.edu",
    "latitude": 19.076,
    "longitude": 72.8777,
    "scholarship_details": "Merit scholarships, SC/ST scholarships, State government scholarships, Industry-sponsored scholarships available."
  },
  {
    "name": "Indian Institute of Technology Delhi",
    "address": "New Delhi, Delhi, India",
    "city": "New Delhi",
    "state": "Delhi",
    "pincode": "110001",
    "website": "https://www.indian.edu",
    "latitude": 28.6139,
    "longitude": 77.209,
    "scholarship_details": "Merit scholarships, SC/ST scholarships, State government scholarships, Industry-sponsored scholarships available."
  },
  {
    "name": "Indian Institute of Technology Kanpur",
    "address": "Kanpur, Uttar Pradesh, India",
    "city": "Kanpur",
    "state": "Uttar Pradesh",
    "pincode": "201301",
    "website": "https://www.indian.edu",
    "latitude": 26.4499,
    "longitude": 80.3319,
    "scholarship_details": "Merit scholarships, SC/ST scholarships, State government scholarships, Industry-sponsored scholarships available."
  },
  {
    "name": "Indian Institute of Technology Kharagpur",
    "address": "Kharagpur, West Bengal, India",
    "city": "Kharagpur",
    "state": "West Bengal",
    "pincode": "700001",
    "website": "https://www.indian.edu",
    "latitude": 20.5937,
    "longitude": 78.9629,
    "scholarship_details": "Merit scholarships, SC/ST scholarships, State government scholarships, Industry-sponsored scholarships available."
  },
  {
    "name": "Indian Institute of Technology Madras",
    "address": "Chennai, Tamil Nadu, India",
    "city": "Chennai",
    "state": "Tamil Nadu",
    "pincode": "600001",
    "website": "https://www.indian.edu",
    "latitude": 13.0827,
    "longitude": 80.2707,
    "scholarship_details": "Merit scholarships, SC/ST scholarships, State government scholarships, Industry-sponsored scholarships available."
  },
  {
    "name": "Indian Institute of Technology Roorkee",
    "address": "Roorkee, Uttarakhand, India",
    "city": "Roorkee",
    "state": "Uttarakhand",
    "pincode": "248001",
    "website": "https://www.indian.edu",
    "latitude": 29.8543,
    "longitude": 77.888,
    "scholarship_details": "Merit scholarships, SC/ST scholarships, State government scholarships, Industry-sponsored scholarships available."
  },
  {
    "name": "Indian Institute of Technology Guwahati",
    "address": "Guwahati, Assam, India",
    "city": "Guwahati",
    "state": "Assam",
    "pincode": "781001",
    "website": "https://www.indian.edu",
    "latitude": 26.1445,
    "longitude": 91.7362,
    "scholarship_details": "Merit scholarships, SC/ST scholarships, State government scholarships, Industry-sponsored scholarships available."
  },
  {
    "name": "Indian Institute of Technology Hyderabad",
    "address": "Hyderabad, Telangana, India",
    "city": "Hyderabad",
    "state": "Telangana",
    "pincode": "500001",
    "website": "https://www.indian.edu",
    "latitude": 17.385,
    "longitude": 78.4867,
    "scholarship_details": "Merit scholarships, SC/ST scholarships, State government scholarships, Industry-sponsored scholarships available."
  },
  {
    "name": "Indian Institute of Management Ahmedabad",
    "address": "Ahmedabad, Gujarat, India",
    "city": "Ahmedabad",
    "state": "Gujarat",
    "pincode": "380001",
    "website": "https://www.indian.edu",
    "latitude": 23.0225,
    "longitude": 72.5714,
    "scholarship_details": "Merit-based scholarships, Need-based financial aid, Alumni scholarships, Corporate sponsorships available."
  },
  {
    "name": "Indian Institute of Management Bangalore",
    "address": "Bangalore, Karnataka, India",
    "city": "Bangalore",
    "state": "Karnataka",
    "pincode": "560001",
    "website": "https://www.indian.edu",
    "latitude": 12.9716,
    "longitude": 77.5946,
    "scholarship_details": "Merit-based scholarships, Need-based financial aid, Alumni scholarships, Corporate sponsorships available."
  },
  {
    "name": "Indian Institute of Management Calcutta",
    "address": "Kolkata, West Bengal, India",
    "city": "Kolkata",
    "state": "West Bengal",
    "pincode": "700001",
    "website": "https://www.indian.edu",
    "latitude": 22.5726,
    "longitude": 88.3639,
    "scholarship_details": "Merit-based scholarships, Need-based financial aid, Alumni scholarships, Corporate sponsorships available."
  },
  {
    "name": "Indian Institute of Management Lucknow",
    "address": "Lucknow, Uttar Pradesh, India",
    "city": "Lucknow",
    "state": "Uttar Pradesh",
    "pincode": "201301",
    "website": "https://www.indian.edu",
    "latitude": 26.8467,
    "longitude": 80.9462,
    "scholarship_details": "Merit-based scholarships, Need-based financial aid, Alumni scholarships, Corporate sponsorships available."
  },
  {
    "name": "Indian Institute of Management Indore",
    "address": "Indore, Madhya Pradesh, India",
    "city": "Indore",
    "state": "Madhya Pradesh",
    "pincode": "452001",
    "website": "https://www.indian.edu",
    "latitude": 22.7196,
    "longitude": 75.8577,
    "scholarship_details": "Merit-based scholarships, Need-based financial aid, Alumni scholarships, Corporate sponsorships available."
  },
  {
    "name": "All India Institute of Medical Sciences Delhi",
    "address": "New Delhi, Delhi, India",
    "city": "New Delhi",
    "state": "Delhi",
    "pincode": "110001",
    "website": "https://www.all.edu",
    "latitude": 28.6139,
    "longitude": 77.209,
    "scholarship_details": "Government scholarships, Merit scholarships, Minority scholarships, State quota benefits available."
  },
  {
    "name": "Christian Medical College Vellore",
    "address": "Vellore, Tamil Nadu, India",
    "city": "Vellore",
    "state": "Tamil Nadu",
    "pincode": "600001",
    "website": "https://www.christian.edu",
    "latitude": 12.9165,
    "longitude": 79.1325,
    "scholarship_details": "Government scholarships, Merit scholarships, Minority scholarships, State quota benefits available."
  },
  {
    "name": "Armed Forces Medical College",
    "address": "Pune, Maharashtra, India",
    "city": "Pune",
    "state": "Maharashtra",
    "pincode": "400001",
    "website": "https://www.armed.edu",
    "latitude": 18.5204,
    "longitude": 73.8567,
    "scholarship_details": "Government scholarships, Merit scholarships, Minority scholarships, State quota benefits available."
  },
  {
    "name": "King George Medical University",
    "address": "Lucknow, Uttar Pradesh, India",
    "city": "Lucknow",
    "state": "Uttar Pradesh",
    "pincode": "201301",
    "website": "https://www.kinguniversity.edu",
    "latitude": 26.8467,
    "longitude": 80.9462,
    "scholarship_details": "Government scholarships, Merit scholarships, Minority scholarships, State quota benefits available."
  },
  {
    "name": "University of Delhi",
    "address": "New Delhi, Delhi, India",
    "city": "New Delhi",
    "state": "Delhi",
    "pincode": "110001",
    "website": "https://www.universityuniversity.edu",
    "latitude": 28.6139,
    "longitude": 77.209,
    "scholarship_details": "Various scholarships including merit-based, need-based, research scholarships, and government schemes."
  },
  {
    "name": "Jawaharlal Nehru University",
    "address": "New Delhi, Delhi, India",
    "city": "New Delhi",
    "state": "Delhi",
    "pincode": "110001",
    "website": "https://www.jawaharlaluniversity.edu",
    "latitude": 28.6139,
    "longitude": 77.209,
    "scholarship_details": "Various scholarships including merit-based, need-based, research scholarships, and government schemes."
  },
  {
    "name": "University of Mumbai",
    "address": "Mumbai, Maharashtra, India",
    "city": "Mumbai",
    "state": "Maharashtra",
    "pincode": "400001",
    "website": "https://www.universityuniversity.edu",
    "latitude": 19.076,
    "longitude": 72.8777,
    "scholarship_details": "Various scholarships including merit-based, need-based, research scholarships, and government schemes."
  },
  {
    "name": "University of Calcutta",
    "address": "Kolkata, West Bengal, India",
    "city": "Kolkata",
    "state": "West Bengal",
    "pincode": "700001",
    "website": "https://www.universityuniversity.edu",
    "latitude": 22.5726,
    "longitude": 88.3639,
    "scholarship_details": "Various scholarships including merit-based, need-based, research scholarships, and government schemes."
  },
  {
    "name": "Banaras Hindu University",
    "address": "Varanasi, Uttar Pradesh, India",
    "city": "Varanasi",
    "state": "Uttar Pradesh",
    "pincode": "201301",
    "website": "https://www.banarasuniversity.edu",
    "latitude": 25.3176,
    "longitude": 82.9739,
    "scholarship_details": "Various scholarships including merit-based, need-based, research scholarships, and government schemes."
  },
  {
    "name": "Aligarh Muslim University",
    "address": "Aligarh, Uttar Pradesh, India",
    "city": "Aligarh",
    "state": "Uttar Pradesh",
    "pincode": "201301",
    "website": "https://www.aligarhuniversity.edu",
    "latitude": 27.8974,
    "longitude": 78.088,
    "scholarship_details": "Various scholarships including merit-based, need-based, research scholarships, and government schemes."
  },
  {
    "name": "Anna University",
    "address": "Chennai, Tamil Nadu, India",
    "city": "Chennai",
    "state": "Tamil Nadu",
    "pincode": "600001",
    "website": "https://www.annauniversity.edu",
    "latitude": 13.0827,
    "longitude": 80.2707,
    "scholarship_details": "Various scholarships including merit-based, need-based, research scholarships, and government schemes."
  },
  {
    "name": "Pune University",
    "address": "Pune, Maharashtra, India",
    "city": "Pune",
    "state": "Maharashtra",
    "pincode": "400001",
    "website": "https://www.puneuniversity.edu",
    "latitude": 18.5204,
    "longitude": 73.8567,
    "scholarship_details": "Various scholarships including merit-based, need-based, research scholarships, and government schemes."
  },
  {
    "name": "Manipal Academy of Higher Education",
    "address": "Manipal, Karnataka, India",
    "city": "Manipal",
    "state": "Karnataka",
    "pincode": "560001",
    "website": "https://www.manipal.edu",
    "latitude": 13.3467,
    "longitude": 74.7854,
    "scholarship_details": "Merit scholarships, Alumni scholarships, Corporate tie-up scholarships, Educational loans assistance."
  },
  {
    "name": "Birla Institute of Technology and Science",
    "address": "Pilani, Rajasthan, India",
    "city": "Pilani",
    "state": "Rajasthan",
    "pincode": "302001",
    "website": "https://www.birla.edu",
    "latitude": 28.367,
    "longitude": 75.6032,
    "scholarship_details": "Merit scholarships, Alumni scholarships, Corporate tie-up scholarships, Educational loans assistance."
  },
  {
    "name": "Vellore Institute of Technology",
    "address": "Vellore, Tamil Nadu, India",
    "city": "Vellore",
    "state": "Tamil Nadu",
    "pincode": "600001",
    "website": "https://www.vellore.edu",
    "latitude": 12.9165,
    "longitude": 79.1325,
    "scholarship_details": "Merit scholarships, Alumni scholarships, Corporate tie-up scholarships, Educational loans assistance."
  },
  {
    "name": "SRM Institute of Science and Technology",
    "address": "Chennai, Tamil Nadu, India",
    "city": "Chennai",
    "state": "Tamil Nadu",
    "pincode": "600001",
    "website": "https://www.srm.edu",
    "latitude": 13.0827,
    "longitude": 80.2707,
    "scholarship_details": "Merit scholarships, Alumni scholarships, Corporate tie-up scholarships, Educational loans assistance."
  },
  {
    "name": "Amity University",
    "address": "Noida, Uttar Pradesh, India",
    "city": "Noida",
    "state": "Uttar Pradesh",
    "pincode": "201301",
    "website": "https://www.amityuniversity.edu",
    "latitude": 28.5355,
    "longitude": 77.391,
    "scholarship_details": "Merit scholarships, Alumni scholarships, Corporate tie-up scholarships, Educational loans assistance."
  },
  {
    "name": "Lovely Professional University",
    "address": "Phagwara, Punjab, India",
    "city": "Phagwara",
    "state": "Punjab",
    "pincode": "144411",
    "website": "https://www.lovelyuniversity.edu",
    "latitude": 31.2244,
    "longitude": 75.7729,
    "scholarship_details": "Merit scholarships, Alumni scholarships, Corporate tie-up scholarships, Educational loans assistance."
  },
  {
    "name": "Osmania University",
    "address": "Hyderabad, Telangana, India",
    "city": "Hyderabad",
    "state": "Telangana",
    "pincode": "500001",
    "website": "https://www.osmaniauniversity.edu",
    "latitude": 17.385,
    "longitude": 78.4867,
    "scholarship_details": "State government scholarships, Central government schemes, Merit scholarships, Fee concessions available."
  },
  {
    "name": "University of Madras",
    "address": "Chennai, Tamil Nadu, India",
    "city": "Chennai",
    "state": "Tamil Nadu",
    "pincode": "600001",
    "website": "https://www.universityuniversity.edu",
    "latitude": 13.0827,
    "longitude": 80.2707,
    "scholarship_details": "State government scholarships, Central government schemes, Merit scholarships, Fee concessions available."
  },
  {
    "name": "Gujarat University",
    "address": "Ahmedabad, Gujarat, India",
    "city": "Ahmedabad",
    "state": "Gujarat",
    "pincode": "380001",
    "website": "https://www.gujaratuniversity.edu",
    "latitude": 23.0225,
    "longitude": 72.5714,
    "scholarship_details": "State government scholarships, Central government schemes, Merit scholarships, Fee concessions available."
  },
  {
    "name": "University of Rajasthan",
    "address": "Jaipur, Rajasthan, India",
    "city": "Jaipur",
    "state": "Rajasthan",
    "pincode": "302001",
    "website": "https://www.universityuniversity.edu",
    "latitude": 26.9124,
    "longitude": 75.7873,
    "scholarship_details": "State government scholarships, Central government schemes, Merit scholarships, Fee concessions available."
  },
  {
    "name": "Harvard University",
    "address": "Cambridge, Massachusetts, USA",
    "city": "Cambridge",
    "state": "Massachusetts",
    "pincode": "00000",
    "website": "https://www.harvarduniversity.edu",
    "latitude": 42.3736,
    "longitude": -71.1097,
    "scholarship_details": "Merit-based and need-based scholarships available. International student financial aid programs."
  },
  {
    "name": "Stanford University",
    "address": "Stanford, California, USA",
    "city": "Stanford",
    "state": "California",
    "pincode": "00000",
    "website": "https://www.stanforduniversity.edu",
    "latitude": 37.4419,
    "longitude": -122.143,
    "scholarship_details": "Merit-based and need-based scholarships available. International student financial aid programs."
  },
  {
    "name": "Massachusetts Institute of Technology",
    "address": "Cambridge, Massachusetts, USA",
    "city": "Cambridge",
    "state": "Massachusetts",
    "pincode": "00000",
    "website": "https://www.massachusetts.edu",
    "latitude": 42.3736,
    "longitude": -71.1097,
    "scholarship_details": "Merit-based and need-based scholarships available. International student financial aid programs."
  },
  {
    "name": "California Institute of Technology",
    "address": "Pasadena, California, USA",
    "city": "Pasadena",
    "state": "California",
    "pincode": "00000",
    "website": "https://www.california.edu",
    "latitude": 34.1478,
    "longitude": -118.1445,
    "scholarship_details": "Merit-based and need-based scholarships available. International student financial aid programs."
  },
  {
    "name": "University of California Berkeley",
    "address": "Berkeley, California, USA",
    "city": "Berkeley",
    "state": "California",
    "pincode": "00000",
    "website": "https://www.universityuniversity.edu",
    "latitude": 37.8715,
    "longitude": -122.273,
    "scholarship_details": "Merit-based and need-based scholarships available. International student financial aid programs."
  },
  {
    "name": "Princeton University",
    "address": "Princeton, New Jersey, USA",
    "city": "Princeton",
    "state": "New Jersey",
    "pincode": "00000",
    "website": "https://www.princetonuniversity.edu",
    "latitude": 40.3573,
    "longitude": -74.6672,
    "scholarship_details": "Merit-based and need-based scholarships available. International student financial aid programs."
  },
  {
    "name": "Yale University",
    "address": "New Haven, Connecticut, USA",
    "city": "New Haven",
    "state": "Connecticut",
    "pincode": "00000",
    "website": "https://www.yaleuniversity.edu",
    "latitude": 41.3083,
    "longitude": -72.9279,
    "scholarship_details": "Merit-based and need-based scholarships available. International student financial aid programs."
  },
  {
    "name": "Columbia University",
    "address": "New York, New York, USA",
    "city": "New York",
    "state": "New York",
    "pincode": "00000",
    "website": "https://www.columbiauniversity.edu",
    "latitude": 40.7128,
    "longitude": -74.006,
    "scholarship_details": "Merit-based and need-based scholarships available. International student financial aid programs."
  },
  {
    "name": "University of Chicago",
    "address": "Chicago, Illinois, USA",
    "city": "Chicago",
    "state": "Illinois",
    "pincode": "00000",
    "website": "https://www.universityuniversity.edu",
    "latitude": 41.8781,
    "longitude": -87.6298,
    "scholarship_details": "Merit-based and need-based scholarships available. International student financial aid programs."
  },
  {
    "name": "Cornell University",
    "address": "Ithaca, New York, USA",
    "city": "Ithaca",
    "state": "New York",
    "pincode": "00000",
    "website": "https://www.cornelluniversity.edu",
    "latitude": 42.443,
    "longitude": -76.5019,
    "scholarship_details": "Merit-based and need-based scholarships available. International student financial aid programs."
  }
]